[{"id":1,"lat":null,"lon":null,"title":"Morrito"},
{"id":2,"lat":30.66974,"lon":120.79411,"title":"Yuxin"},
{"id":3,"lat":34.542308,"lon":118.752842,"title":"Donghai"},
{"id":4,"lat":43.1298714,"lon":45.5357156,"title":"Urus-Martan"},
{"id":5,"lat":-20.1174305,"lon":57.5561071,"title":"Calebasses"},
{"id":6,"lat":43.0429124,"lon":1.9038837,"title":"Lyon"},
{"id":7,"lat":37.8833564,"lon":23.9333037,"title":"Markópoulo"},
{"id":8,"lat":29.289085,"lon":111.189296,"title":"Erfangping"},
{"id":9,"lat":31.8786249,"lon":-106.5680459,"title":"Hongde"},
{"id":10,"lat":"37.08571","lon":"69.47958","title":"Ārt Khwājah"},
{"id":11,"lat":40.0196006,"lon":44.4229372,"title":"Noramarg"},
{"id":12,"lat":-7.5067598,"lon":108.8432656,"title":"Gandrungmangu"},
{"id":13,"lat":31.3085444,"lon":30.8039474,"title":"Kafr ash Shaykh"},
{"id":14,"lat":-8.227306,"lon":115.2379,"title":"Katur"},
{"id":15,"lat":38.689871,"lon":106.253324,"title":"Ningxi"},
{"id":16,"lat":23.1186718,"lon":113.3848198,"title":"Chezhan"},
{"id":17,"lat":3.6085862,"lon":96.9309771,"title":"Dukoh"},
{"id":18,"lat":1.5073967,"lon":21.0728664,"title":"Bongandanga"},
{"id":19,"lat":43.4717283,"lon":-3.7866915,"title":"Santander"},
{"id":20,"lat":59.954927,"lon":40.2195978,"title":"Kharovsk"},
{"id":21,"lat":37.13,"lon":-84.08,"title":"London"},
{"id":22,"lat":45.847435,"lon":123.1998901,"title":"Zhenlai"},
{"id":23,"lat":-25.1057553,"lon":30.4566069,"title":"Lydenburg"},
{"id":24,"lat":20.7303804,"lon":-103.3977222,"title":"San Isidro"},
{"id":25,"lat":47.7809616,"lon":-2.1084626,"title":"La Gacilly"},
{"id":26,"lat":8.5395253,"lon":4.4735386,"title":"Madala"},
{"id":27,"lat":49.6488646,"lon":1.7314818,"title":"Trélazé"},
{"id":28,"lat":24.348178,"lon":113.151358,"title":"Shigutang"},
{"id":29,"lat":51.8478427,"lon":42.4697909,"title":"Muchkapskiy"},
{"id":30,"lat":30.262907,"lon":84.475645,"title":"Chabu"},
{"id":31,"lat":37.520481,"lon":115.251124,"title":"Xinhe"},
{"id":32,"lat":60.706979,"lon":17.1401083,"title":"Gävle"},
{"id":33,"lat":15.6452543,"lon":-91.6875527,"title":"Jacaltenango"},
{"id":34,"lat":-14.06355,"lon":32.4382307,"title":"Chadiza"},
{"id":35,"lat":14.5665991,"lon":121.0022623,"title":"Lemery"},
{"id":36,"lat":28.062918,"lon":99.492635,"title":"Nixi"},
{"id":37,"lat":2.394682,"lon":98.4403573,"title":"Parlilitan"},
{"id":38,"lat":34.9645166,"lon":-5.5663222,"title":"Brikcha"},
{"id":39,"lat":"54.80639","lon":"35.92778","title":"Kondrovo"},
{"id":40,"lat":48.1552902,"lon":-1.7123278,"title":"Rennes"},
{"id":41,"lat":51.6205979,"lon":17.8047355,"title":"Ostrów Wielkopolski"},
{"id":42,"lat":34.1956019,"lon":118.6733461,"title":"Chunmuying"},
{"id":43,"lat":39.538047,"lon":116.683752,"title":"Lang"},
{"id":44,"lat":49.6308644,"lon":18.8985165,"title":"Wisła"},
{"id":45,"lat":-8.2702492,"lon":111.7018452,"title":"Watulimo"},
{"id":46,"lat":14.6103278,"lon":121.0080574,"title":"Roxas"},
{"id":47,"lat":18.9753413,"lon":-97.9041394,"title":"El Calvario"},
{"id":48,"lat":-14.4765263,"lon":-71.3957971,"title":"Checca"},
{"id":49,"lat":28.650072,"lon":121.261886,"title":"Huangtan"},
{"id":50,"lat":-4.1393386,"lon":39.3180297,"title":"Kinango"},
{"id":51,"lat":43.61812,"lon":118.05545,"title":"Linxi"},
{"id":52,"lat":-37.4762431,"lon":-73.3421243,"title":"Curanilahue"},
{"id":53,"lat":14.160407,"lon":-87.0399404,"title":"Valle de Ángeles"},
{"id":54,"lat":-6.9014042,"lon":106.8370122,"title":"Lembursawah"},
{"id":55,"lat":13.5924758,"lon":100.1031202,"title":"Ban Phaeo"},
{"id":56,"lat":11.394604,"lon":-69.6810338,"title":"Coro"},
{"id":57,"lat":30.882557,"lon":114.375743,"title":"Huangpi"},
{"id":58,"lat":26.2285161,"lon":50.5860497,"title":"Manama"},
{"id":59,"lat":43.5958543,"lon":5.1190026,"title":"Salon-de-Provence"},
{"id":60,"lat":-24.1377718,"lon":19.1107114,"title":"Aranos"},
{"id":61,"lat":33.4955028,"lon":49.0631743,"title":"Dorūd"},
{"id":62,"lat":49.8831056,"lon":18.3174408,"title":"Vrbice"},
{"id":63,"lat":40.0480392,"lon":23.4134501,"title":"Kassándreia"},
{"id":64,"lat":"-8.5298","lon":"123.3227","title":"Idalolong"},
{"id":65,"lat":-33.3672731,"lon":-60.1976374,"title":"San Nicolás de los Arroyos"},
{"id":66,"lat":27.948308,"lon":109.599191,"title":"Fengjiang"},
{"id":67,"lat":"-7.4536","lon":"108.6423","title":"Cakungsari"},
{"id":68,"lat":55.658365,"lon":37.615691,"title":"Nagornyy"},
{"id":69,"lat":41.7396715,"lon":-85.9262162,"title":"Clearwater"},
{"id":70,"lat":38.705449,"lon":116.653793,"title":"Dacheng"},
{"id":71,"lat":38.7683879,"lon":139.9177739,"title":"Fujioka"},
{"id":72,"lat":47.1892329,"lon":8.7108197,"title":"Lian"},
{"id":73,"lat":-23.3711864,"lon":-46.7575221,"title":"Caieiras"},
{"id":74,"lat":38.8426524,"lon":-9.1289108,"title":"São Julião do Tojal"},
{"id":75,"lat":-0.3662126,"lon":117.4086488,"title":"Muarabadak"},
{"id":76,"lat":-24.4748345,"lon":-49.8956943,"title":"Piraí do Sul"},
{"id":77,"lat":59.9080511,"lon":31.0722897,"title":"Sinyavino"},
{"id":78,"lat":38.243169,"lon":101.984648,"title":"Yongchang"},
{"id":79,"lat":48.9000154,"lon":17.6961852,"title":"Strání"},
{"id":80,"lat":47.011607,"lon":90.451789,"title":"Mudian"},
{"id":81,"lat":8.6317541,"lon":126.0932341,"title":"Lianga"},
{"id":82,"lat":52.5999819,"lon":39.5170628,"title":"Kuvshinovo"},
{"id":83,"lat":56.854995,"lon":26.2255149,"title":"Madona"},
{"id":84,"lat":32.888994,"lon":120.555917,"title":"Touzao"},
{"id":85,"lat":18.2943776,"lon":105.6745247,"title":"Hà Tĩnh"},
{"id":86,"lat":13.9426434,"lon":45.6787098,"title":"Mukayrās"},
{"id":87,"lat":52.8131502,"lon":16.8357836,"title":"Ryczywół"},
{"id":88,"lat":34.819583,"lon":32.4608775,"title":"Mesógi"},
{"id":89,"lat":2.9372148,"lon":11.9861694,"title":"Sangmélima"},
{"id":90,"lat":-7.0206795,"lon":112.3963638,"title":"Lukrejo"},
{"id":91,"lat":53.8996586,"lon":-6.391149,"title":"Castlebellingham"},
{"id":92,"lat":40.4878138,"lon":-7.8661822,"title":"Caldas da Felgueira"},
{"id":93,"lat":10.0698222,"lon":124.5514906,"title":"Basiao"},
{"id":94,"lat":35.2086503,"lon":26.1052329,"title":"Siteía"},
{"id":95,"lat":41.5054085,"lon":-8.4697574,"title":"Agra"},
{"id":96,"lat":13.7362437,"lon":124.1066725,"title":"Manamrag"},
{"id":97,"lat":17.9567646,"lon":-102.1943485,"title":"Lazaro Cardenas"},
{"id":98,"lat":29.988244,"lon":120.582633,"title":"Yuecheng"},
{"id":99,"lat":16.424148,"lon":120.5983132,"title":"Manuel Roxas"},
{"id":100,"lat":37.73892,"lon":115.670177,"title":"Hengshui"},
{"id":101,"lat":22.149009,"lon":113.217268,"title":"Haibeitou"},
{"id":102,"lat":-19.009336,"lon":-57.5977799,"title":"Ladário"},
{"id":103,"lat":46.5448323,"lon":14.9660445,"title":"Ravne na Koroškem"},
{"id":104,"lat":23.0962864,"lon":-82.3614632,"title":"Diez de Octubre"},
{"id":105,"lat":-6.1873861,"lon":106.9168787,"title":"Soho"},
{"id":106,"lat":-19.9030544,"lon":-44.1170051,"title":"Contagem"},
{"id":107,"lat":57.7724113,"lon":14.1585251,"title":"Jönköping"},
{"id":108,"lat":7.0727574,"lon":100.4059456,"title":"Bang Klam"},
{"id":109,"lat":39.1762837,"lon":-8.8661993,"title":"Ereira"},
{"id":110,"lat":-18.7,"lon":47.783333,"title":"Ankazondandy"},
{"id":111,"lat":30.610203,"lon":34.801898,"title":"Mitzpe Ramon"},
{"id":112,"lat":"31.31913","lon":"34.34005","title":"‘Abasān al Kabīrah"},
{"id":113,"lat":40.7275043,"lon":-73.9800645,"title":"New York City"},
{"id":114,"lat":36.0887208,"lon":9.3645335,"title":"Siliana"},
{"id":115,"lat":43.4750998,"lon":1.7205437,"title":"Houilles"},
{"id":116,"lat":49.2484813,"lon":17.7516417,"title":"Hvozdná"},
{"id":117,"lat":-11.2568167,"lon":-39.0710754,"title":"Araci"},
{"id":118,"lat":48.65639,"lon":4.912419,"title":"Saint-Dizier"},
{"id":119,"lat":33.7356633,"lon":130.7183918,"title":"Nōgata"},
{"id":120,"lat":41.318142,"lon":124.719659,"title":"Dasiping"},
{"id":121,"lat":46.8260183,"lon":-2.1318548,"title":"Saint-Jean-de-Monts"},
{"id":122,"lat":24.7242467,"lon":56.4607919,"title":"Shināş"},
{"id":123,"lat":2.9362417,"lon":101.6991728,"title":"Putrajaya"},
{"id":124,"lat":35.9613724,"lon":50.6845648,"title":"Hashtgerd"},
{"id":125,"lat":27.569678,"lon":116.63704,"title":"Nancheng"},
{"id":126,"lat":14.5500435,"lon":121.0049116,"title":"Dolores"},
{"id":127,"lat":48.2618635,"lon":37.8561647,"title":"Troyits’ke"},
{"id":128,"lat":19.3803931,"lon":-99.1476908,"title":"Independencia"},
{"id":129,"lat":21.428436,"lon":110.869567,"title":"Miyang"},
{"id":130,"lat":55.385815,"lon":37.545315,"title":"Klimovsk"},
{"id":131,"lat":41.7186852,"lon":20.065066,"title":"Gjoçaj"},
{"id":132,"lat":37.355469,"lon":120.434071,"title":"Zhouyuan"},
{"id":133,"lat":39.538047,"lon":116.683752,"title":"Yangfang"},
{"id":134,"lat":33.7071551,"lon":8.9714623,"title":"Kebili"},
{"id":135,"lat":40.2766272,"lon":-8.4903311,"title":"Mourelos"},
{"id":136,"lat":23.018033,"lon":-82.3343375,"title":"Arroyo Naranjo"},
{"id":137,"lat":-7.0837462,"lon":107.6540877,"title":"Pinggirsari"},
{"id":138,"lat":14.6991252,"lon":120.5166906,"title":"Abucay"},
{"id":139,"lat":52.6325793,"lon":4.7239896,"title":"Alkmaar"},
{"id":140,"lat":25.8517475,"lon":43.5222313,"title":"Ar Rass"},
{"id":141,"lat":-0.931556,"lon":-78.60585,"title":"Latacunga"},
{"id":142,"lat":37.646108,"lon":120.477813,"title":"Longlou"},
{"id":143,"lat":22.9861757,"lon":-82.4102628,"title":"Boyeros"},
{"id":144,"lat":10.3492919,"lon":123.9133184,"title":"Balinad"},
{"id":145,"lat":26.647661,"lon":106.630153,"title":"Guyang"},
{"id":146,"lat":44.9799999,"lon":-93.26,"title":"Minneapolis"},
{"id":147,"lat":44.3660736,"lon":19.8379835,"title":"Joševa"},
{"id":148,"lat":25.849502,"lon":107.280659,"title":"Shidong"},
{"id":149,"lat":"49.05798","lon":"-122.25257","title":"Abbotsford"},
{"id":150,"lat":30.939169,"lon":100.311368,"title":"Xinlong"},
{"id":151,"lat":40.6108358,"lon":43.1000425,"title":"Yedogon"},
{"id":152,"lat":59.4281489,"lon":10.65544,"title":"Moss"},
{"id":153,"lat":17.9670882,"lon":104.0444828,"title":"Bueng Khong Long"},
{"id":154,"lat":50.0884409,"lon":14.5888523,"title":"Dolní Počernice"},
{"id":155,"lat":37.7466201,"lon":23.9055737,"title":"Saronída"},
{"id":156,"lat":57.8852519,"lon":25.4597761,"title":"Naukšēni"},
{"id":157,"lat":14.4332941,"lon":121.0303692,"title":"Laoag"},
{"id":158,"lat":48.7277622,"lon":100.7724281,"title":"Jargalant"},
{"id":159,"lat":35.3,"lon":25,"title":"Stalís"},
{"id":160,"lat":27.508898,"lon":119.582263,"title":"Pandi"},
{"id":161,"lat":-8.463483,"lon":122.4438929,"title":"Parumaan"},
{"id":162,"lat":56.5155642,"lon":64.631671,"title":"Shatrovo"},
{"id":163,"lat":-32.6480698,"lon":-61.2103496,"title":"Colonias Unidas"},
{"id":164,"lat":50.4438122,"lon":48.1450932,"title":"Novouzensk"},
{"id":165,"lat":-20.1215224,"lon":-40.3077898,"title":"Serra"},
{"id":166,"lat":49.6355347,"lon":-1.6272462,"title":"Cherbourg-Octeville"},
{"id":167,"lat":50.701693,"lon":20.3707749,"title":"Mnich"},
{"id":168,"lat":35.7702315,"lon":-119.2578873,"title":"Ogod"},
{"id":169,"lat":-25.7333842,"lon":-59.1078529,"title":"Pirané"},
{"id":170,"lat":-6.238938,"lon":106.7893078,"title":"Pasargunung"},
{"id":171,"lat":-7.002985,"lon":112.282503,"title":"Jangkungkusumo"},
{"id":172,"lat":-7.0379245,"lon":108.4187029,"title":"Sakerta Timur"},
{"id":173,"lat":14.5933217,"lon":-90.496159,"title":"La Unión"},
{"id":174,"lat":29.865333,"lon":116.272704,"title":"Shaochang"},
{"id":175,"lat":27.122273,"lon":116.571317,"title":"Sangtian"},
{"id":176,"lat":41.4833449,"lon":-8.2551219,"title":"São Torcato"},
{"id":177,"lat":31.7746473,"lon":73.5953173,"title":"Khāngāh Dogrān"},
{"id":178,"lat":"49.12402","lon":"-66.49243","title":"Sainte-Anne-des-Monts"},
{"id":179,"lat":44.3200232,"lon":15.1873721,"title":"Smokvica"},
{"id":180,"lat":32.331765,"lon":121.185201,"title":"Rudong"},
{"id":181,"lat":44.7735327,"lon":65.5544515,"title":"Tasböget"},
{"id":182,"lat":7.4286324,"lon":100.1927389,"title":"Bang Kaeo"},
{"id":183,"lat":31.23285,"lon":121.467218,"title":"Changzheng"},
{"id":184,"lat":43.736236,"lon":22.7219856,"title":"Dimovo"},
{"id":185,"lat":15.9658063,"lon":120.4098162,"title":"Patayac"},
{"id":186,"lat":40.1638631,"lon":-8.8615847,"title":"Buarcos"},
{"id":187,"lat":38.748203,"lon":114.982972,"title":"Tangxian"},
{"id":188,"lat":39.7825,"lon":116.3877778,"title":"Nanyuan"},
{"id":189,"lat":39.6924206,"lon":-94.9143239,"title":"Saint Joseph"},
{"id":190,"lat":22.9856091,"lon":-80.5855038,"title":"Corralillo"},
{"id":191,"lat":6.0343516,"lon":124.5217429,"title":"Laya"},
{"id":192,"lat":34.0112004,"lon":71.9795856,"title":"Nowshera"},
{"id":193,"lat":-31.5720128,"lon":28.7649835,"title":"Mthatha"},
{"id":194,"lat":48.6443358,"lon":7.7212169,"title":"Mundolsheim"},
{"id":195,"lat":22.4423218,"lon":114.1655064,"title":"Tai Po"},
{"id":196,"lat":-22.8664464,"lon":-51.3906526,"title":"Florestópolis"},
{"id":197,"lat":16.2426241,"lon":101.9348069,"title":"Kaset Sombun"},
{"id":198,"lat":22.9290295,"lon":-82.3912892,"title":"Bejucal"},
{"id":199,"lat":51.6857586,"lon":22.6493816,"title":"Czemierniki"},
{"id":200,"lat":35.872664,"lon":120.04619,"title":"Huangbao"}]